name,address,hub_id,website,phone_number,email,styles,hours,photo,latitude,longitude
Canggu Studio,"Jl. Nelayan No.32, Canggu, Kec. Kuta Utara, Kabupaten Badung, Bali",1,http://www.thecanggustudio.com/,62 811-3888-472,contact@canggustudio.com,"Power, Hatha, Vinyasa, Ashtanga, Yin",8:30 - 19:00,https://res.cloudinary.com/le-wagon1234/image/upload/v1573617041/AF1QipNv5U120gsQKxg7Yx0n9UI2Z_w9SZk4eb3Aj4lv_w660-h440-c_dw29vb.jpg,-8.655799,115.134860
Serenity Eco Guesthouse and Yoga,"Jl. Nelayan, Canggu, Kec. Kuta Utara, Kabupaten Badung, Bali 80361",1,https://www.serenitybali.com/,62 811-3888-472,info@serenitybali.com,"Power, Vinyasa, Hatha, Yin, Restorative, Ashtanga, Aerial",7:30 - 19:30,https://res.cloudinary.com/le-wagon1234/image/upload/v1572916635/serenity-bali-yoga_tdifpr.jpg,-8.658123,115.133911
Villa Lotus 8 Yoga Studio,"Jl. Raya Babakan Canggu No.5, Canggu, Kec. Kuta Utara, Kabupaten Badung, Bali 80351",1,https://www.villalotus8.com/,62 811-3888-472,contact@villalotus.com,"Hatha, Vinyasa, Aerial, Kundalini, Yin",6:45 - 20:30,https://res.cloudinary.com/le-wagon1234/image/upload/v1573616630/main-yoga-ubud_qmqmvm.jpg,-8.6339,115.1490
Ecosfera Yoga,"Jl. Batu Mejan, Canggu, Kec. Kuta Utara, Kabupaten Badung, Bali 80351",1,http://www.ecosferahotel.com/,62 812-3831-2505,info@ecosfera.com,"Power, Vinyasa, Hatha, Yin, Restorative, Ashtanga, Aerial",7:30 - 19:30,https://res.cloudinary.com/le-wagon1234/image/upload/v1573616491/ecosf4_vudl90.jpg,-8.652256,115.126437
Odyssey MVMT,"Jl. Subak Canggu, Canggu, Kec. Kuta Utara, Kabupaten Badung, Bali 80361",1,http://www.odysseymvmt.com/,62 821-4721-5665,hello@odysseymvmt.com,"Vinyasa, Power",8:30 - 19:00,https://res.cloudinary.com/le-wagon1234/image/upload/v1572914531/odyssey-yoga-studio_mlmkhj.jpg,-8.6530,115.1380
Pranava Yoga,"Jl Gangga Pelambingan, Gg. Dewi Sri, Tibubeneng, Kec. Kuta Utara, Kabupaten Badung, Bali 80361",1,matrabali.com/pranava-yoga#schedule,62 819-9909-5888,info@matrabali.com,"Hatha, Vinyasa, Ashtanga, Aerial",8:00 - 18:30,https://res.cloudinary.com/le-wagon1234/image/upload/v1572917866/pranava-header_rqp3ag.jpg,-8.655882,115.148778
The Peaceful Warriors,"Jl. Pura Taman Sari Jl. Padanglinjong No.22, Canggu, Kec. Kuta Utara, Kabupaten Badung, Bali 80361",1,http://www.thepeacefulwarriorsyoga.com/,62 361-300-3446,info@peacefulwarriors.com,"Power, Vinyasa, Hatha, Yin, Restorative, Ashtanga, Aerial",7:15 - 20:00,https://res.cloudinary.com/le-wagon1234/image/upload/v1573616860/home-hero_vafa1c.jpg,-8.6446,115.1379
The Practice,"Pantai Batu Bolong St No.94, Canggu, North Kuta, Badung Regency, Bali",1,http://www.thepracticebali.com/,62 361-300-3446,reception@thepracticebali.com,"Tantric Hatha Yoga, Yoga Nidra",7:15 - 20:00,https://res.cloudinary.com/le-wagon1234/image/upload/v1572914351/the_practice_studio_xourec.jpg,-8.6556,115.1319
Samadi Bali,"Jl. Padanglinjong No.39, Canggu, Kec. Kuta Utara, Kabupaten Badung, Bali 80361",1,samadibali.com,62 812-3831-2505,contact@samadibali.com,"Hatha, Vinyasa, Ashtanga, Yin",7:00 - 21:00,https://res.cloudinary.com/le-wagon1234/image/upload/v1573617261/Bildschirmfoto-2018-02-13-um-14.38.48_ibbgxi.png,-8.6440,115.1373
Udara Yoga,"Jl. Pura Kramat, Seseh 80351 Bali, Indonesia",1,https://www.udara-bali.com/,62 877-6537-7313,info@udara-bali.com,"Hatha, Vinyasa, Aerial, Kundalini, Yin",6:45 - 20:30,https://res.cloudinary.com/le-wagon1234/image/upload/v1572916722/udara_studio_azw1dt.jpg,-8.645459,115.114584
Yoga Saraswati,"Jl. Suweta No.6, Ubud, Kecamatan Ubud, Kabupaten Gianyar, Bali 80571",2,http://ubudyogahouse.com/,62 819-9909-5888,info@ubudyogahouse.com,"Tantric Hatha Yoga, Yoga Nidra",7:30 - 19:30,https://res.cloudinary.com/le-wagon1234/image/upload/v1573618230/AF1QipMEuSYOKQ2makLecYKMLHvXDVH64720c9RyYslK_w660-h440-c_enwxmn.jpg,-8.5055,115.2630
Taksu Yoga,"Jl. Bisma, Ubud, Kecamatan Ubud, Kabupaten Gianyar, Bali 80571",2,http://ubudyogahouse.com/,62 819-9909-5888,info@ubudyogahouse.com,"Tantric Hatha Yoga, Yoga Nidra",7:30 - 19:30,https://res.cloudinary.com/le-wagon1234/image/upload/v1573618164/fad4d8c1dd8032ac066d586281e42161_oeprgc.jpg,-8.510465,115.263510
Ubud Yoga House,"Jl. Subak Sokwayah, Ubud, Gianyar, Kabupaten Gianyar, Bali 80571",2,http://ubudyogahouse.com/,62 819-9909-5888,info@ubudyogahouse.com,"Tantric Hatha Yoga, Yoga Nidra",7:30 - 19:30,https://res.cloudinary.com/le-wagon1234/image/upload/v1573618009/22550290_1544120932300297_2550151901998595956_o.jpg_v7gquc.jpg,-8.5019,115.2585
The Yoga Barn,"Jl. Hanoman, Pengosekan, Kecamatan Ubud, Kabupaten Gianyar, Bali 80571",2,https://www.theyogabarn.com/,62 361-300-3446,info@theyogabarn.com,"Hatha, Vinyasa, Aerial, Kundalini, Yin",7:15 - 20:00,https://res.cloudinary.com/le-wagon1234/image/upload/v1573617799/yoga-barn-2_wm7trx.jpg,-8.5194,115.2653
Radiantly Alive Yoga,"Jl. Jembawan 1 No.3, Ubud, Kecamatan Ubud, Kabupaten Gianyar, Bali 80571",2,https://www.radiantlyalive.com/,62 821-4721-5665,info@radiantlyalive.com,"Power, Vinyasa, Hatha, Yin, Restorative, Ashtanga, Aerial",7:30 - 19:30,https://res.cloudinary.com/le-wagon1234/image/upload/v1573617624/radiantly-alive_qpsdce.jpg,-8.508118,115.266826
