name,address,hub_id,website,phone_number,email,styles,hours,photo,latitude,longitude
The Practice,"Pantai Batu Bolong St No.94, Canggu, North Kuta, Badung Regency, Bali",1,http://www.thepracticebali.com/,62 361-300-3446,reception@thepracticebali.com,"Tantric Hatha Yoga, Yoga Nidra",7:15 - 20:00,https://res.cloudinary.com/le-wagon1234/image/upload/v1572914351/the_practice_studio_xourec.jpg,-8.6556,115.1319
Odyssey MVMT,"Jl. Subak Canggu, Canggu, Kec. Kuta Utara, Kabupaten Badung, Bali 80361",1,http://www.odysseymvmt.com/,62 821-4721-5665,hello@odysseymvmt.com,"Vinyasa, Power",8:30 - 19:00,https://res.cloudinary.com/le-wagon1234/image/upload/v1572914531/odyssey-yoga-studio_mlmkhj.jpg,-8.6530,115.1380
Serenity Eco Guesthouse and Yoga,"Jl. Nelayan, Canggu, Kec. Kuta Utara, Kabupaten Badung, Bali 80361",1,https://www.serenitybali.com/,62 811-3888-472,info@serenitybali.com,"Power, Vinyasa, Hatha, Yin, Restorative, Ashtanga, Aerial",7:30 - 19:30,https://res.cloudinary.com/le-wagon1234/image/upload/v1572916635/serenity-bali-yoga_tdifpr.jpg,-8.6594,115.1341
Udara Yoga,"Jl. Pura Kramat, Seseh 80351 Bali, Indonesia",1,https://www.udara-bali.com/,62 877-6537-7313,info@udara-bali.com,"Hatha, Vinyasa, Aerial, Kundalini, Yin",6:45 - 20:30,https://res.cloudinary.com/le-wagon1234/image/upload/v1572916722/udara_studio_azw1dt.jpg,-8.6469,115.1145
Samadi Bali,"Jl. Padanglinjong No.39, Canggu, Kec. Kuta Utara, Kabupaten Badung, Bali 80361",1,samadibali.com,62 812-3831-2505,contact@samadibali.com,"Hatha, Vinyasa, Ashtanga, Yin",7:00 - 21:00,https://res.cloudinary.com/le-wagon1234/image/upload/v1572917424/samadi_djw9j7.jpg,-8.6440,115.1373
Pranava Yoga,"Jl Gangga Pelambingan, Gg. Dewi Sri, Tibubeneng, Kec. Kuta Utara, Kabupaten Badung, Bali 80361",1,matrabali.com/pranava-yoga#schedule,62 819-9909-5888,info@matrabali.com,"Hatha, Vinyasa, Ashtanga, Aerial",8:00 - 18:30,https://res.cloudinary.com/le-wagon1234/image/upload/v1572917866/pranava-header_rqp3ag.jpg,-8.6568,115.1486
